[
{"country":"US","name":"Gold Bar","_id":5795678,"coord":{"lon":-121.69706,"lat":47.85677}},
{"country":"US","name":"Goldendale","_id":5795741,"coord":{"lon":-120.821732,"lat":45.820679}},
{"country":"US","name":"Grand Mound","_id":5795933,"coord":{"lon":-123.011253,"lat":46.78788}},
{"country":"US","name":"Grandview","_id":5795969,"coord":{"lon":-119.901703,"lat":46.250969}},
{"country":"US","name":"Granger","_id":5795972,"coord":{"lon":-120.187271,"lat":46.342072}},
{"country":"US","name":"Granite Falls","_id":5795988,"coord":{"lon":-120.213692,"lat":47.890129}},
{"country":"US","name":"Granite Falls","_id":5795991,"coord":{"lon":-121.968742,"lat":48.083988}},
{"country":"US","name":"Hansville","_id":5796685,"coord":{"lon":-122.554314,"lat":47.918701}},
{"country":"US","name":"Highland","_id":5797300,"coord":{"lon":-119.114182,"lat":46.131519}},
{"country":"US","name":"Hobart","_id":5797430,"coord":{"lon":-121.972893,"lat":47.421768}},
{"country":"US","name":"Hockinson","_id":5797435,"coord":{"lon":-122.487038,"lat":45.737888}},
{"country":"US","name":"Home","_id":5797582,"coord":{"lon":-122.763748,"lat":47.274818}},
{"country":"US","name":"Hoquiam","_id":5797693,"coord":{"lon":-123.889328,"lat":46.980919}},
{"country":"US","name":"Kalama","_id":5799410,"coord":{"lon":-122.844551,"lat":46.00845}},
{"country":"US","name":"Kelso","_id":5799571,"coord":{"lon":-122.90844,"lat":46.146778}},
{"country":"US","name":"Kettle Falls","_id":5799687,"coord":{"lon":-118.055817,"lat":48.610741}},
{"country":"US","name":"Key Center","_id":5799692,"coord":{"lon":-122.745407,"lat":47.340649}},
{"country":"US","name":"Kingston","_id":5799815,"coord":{"lon":-122.498192,"lat":47.79871}},
{"country":"US","name":"Kingsgate","_id":5799819,"coord":{"lon":-122.179573,"lat":47.727039}},
{"country":"US","name":"Kittitas","_id":5799869,"coord":{"lon":-120.417007,"lat":46.983181}},
{"country":"US","name":"Klahanie","_id":5799884,"coord":{"lon":-122.436523,"lat":47.43121}},
{"country":"US","name":"La Center","_id":5800069,"coord":{"lon":-122.67038,"lat":45.862339}},
{"country":"US","name":"Lake Forest Park","_id":5800227,"coord":{"lon":-122.28096,"lat":47.75676}},
{"country":"US","name":"Lake Goodwin","_id":5800235,"coord":{"lon":-122.279587,"lat":48.138988}},
{"country":"US","name":"Lake Shore","_id":5800314,"coord":{"lon":-122.690933,"lat":45.69067}},
{"country":"US","name":"Langley","_id":5800475,"coord":{"lon":-122.406258,"lat":48.040089}},
{"country":"US","name":"Leavenworth","_id":5800683,"coord":{"lon":-120.661484,"lat":47.59623}},
{"country":"US","name":"Lewisville","_id":5800840,"coord":{"lon":-122.523148,"lat":45.809841}},
{"country":"US","name":"Liberty Lake","_id":5800870,"coord":{"lon":-117.11821,"lat":47.675911}},
{"country":"US","name":"Lochsloy","_id":5801412,"coord":{"lon":-122.032082,"lat":48.051491}},
{"country":"US","name":"Lofall","_id":5801441,"coord":{"lon":-122.658211,"lat":47.812038}},
{"country":"US","name":"Long Beach","_id":5801520,"coord":{"lon":-124.054321,"lat":46.352322}},
{"country":"US","name":"Longbranch","_id":5801595,"coord":{"lon":-122.756798,"lat":47.208981}},
{"country":"US","name":"Longview Heights","_id":5801621,"coord":{"lon":-122.957062,"lat":46.180389}},
{"country":"US","name":"Lynden","_id":5802035,"coord":{"lon":-122.45211,"lat":48.946499}},
{"country":"US","name":"Mabton","_id":5802087,"coord":{"lon":-119.996712,"lat":46.214851}},
{"country":"US","name":"Machias","_id":5802098,"coord":{"lon":-122.045959,"lat":47.981491}},
{"country":"US","name":"Maltby","_id":5802236,"coord":{"lon":-122.113182,"lat":47.805099}},
{"country":"US","name":"Manchester","_id":5802247,"coord":{"lon":-122.544861,"lat":47.555931}},
{"country":"US","name":"Manson","_id":5802291,"coord":{"lon":-120.158409,"lat":47.884861}},
{"country":"US","name":"Maplewood","_id":5802349,"coord":{"lon":-122.557068,"lat":47.40176}},
{"country":"US","name":"Marietta","_id":5802418,"coord":{"lon":-122.580452,"lat":48.787048}},
{"country":"US","name":"Mattawa","_id":5802636,"coord":{"lon":-119.902817,"lat":46.737911}},
{"country":"US","name":"McCleary","_id":5802758,"coord":{"lon":-123.265427,"lat":47.05315}},
{"country":"US","name":"McMillin","_id":5802950,"coord":{"lon":-122.236511,"lat":47.13982}},
{"country":"US","name":"Mead","_id":5802984,"coord":{"lon":-117.354942,"lat":47.767391}},
{"country":"US","name":"Meadow Glade","_id":5803025,"coord":{"lon":-122.560379,"lat":45.75845}},
{"country":"US","name":"Meadowdale","_id":5803055,"coord":{"lon":-122.333473,"lat":47.852871}},
{"country":"US","name":"Medical Lake","_id":5803066,"coord":{"lon":-117.682159,"lat":47.572941}},
{"country":"US","name":"Medina","_id":5803092,"coord":{"lon":-122.227623,"lat":47.62093}},
{"country":"US","name":"Midland","_id":5803357,"coord":{"lon":-122.404839,"lat":47.167042}},
{"country":"US","name":"Mill Plain","_id":5803482,"coord":{"lon":-122.49398,"lat":45.642899}},
{"country":"US","name":"Millwood","_id":5803545,"coord":{"lon":-117.282707,"lat":47.681278}},
{"country":"US","name":"Milton","_id":5803556,"coord":{"lon":-122.312897,"lat":47.248161}},
{"country":"US","name":"Minnehaha","_id":5803622,"coord":{"lon":-122.648712,"lat":45.659012}},
{"country":"US","name":"Mirrormont","_id":5803666,"coord":{"lon":-121.995667,"lat":47.462318}},
{"country":"US","name":"Montesano","_id":5803818,"coord":{"lon":-123.602661,"lat":46.981209}},
{"country":"US","name":"Morton","_id":5803964,"coord":{"lon":-122.275101,"lat":46.558441}},
{"country":"US","name":"Mount Vista","_id":5804135,"coord":{"lon":-122.632881,"lat":45.73428}},
{"country":"US","name":"Napavine","_id":5804467,"coord":{"lon":-122.90818,"lat":46.574551}},
{"country":"US","name":"Navy Yard City","_id":5804540,"coord":{"lon":-122.664581,"lat":47.553429}},
{"country":"US","name":"Newcastle","_id":5804676,"coord":{"lon":-122.155678,"lat":47.53899}},
{"country":"US","name":"Newport","_id":5804693,"coord":{"lon":-122.180679,"lat":47.571209}},
{"country":"US","name":"Newport","_id":5804694,"coord":{"lon":-117.043259,"lat":48.17963}},
{"country":"US","name":"Nooksack","_id":5804860,"coord":{"lon":-122.321548,"lat":48.92762}},
{"country":"US","name":"Normandy Park","_id":5804885,"coord":{"lon":-122.340683,"lat":47.436211}},
{"country":"US","name":"North Bend","_id":5804915,"coord":{"lon":-121.786781,"lat":47.495659}},
{"country":"US","name":"North Puyallup","_id":5805248,"coord":{"lon":-122.282341,"lat":47.206772}},
{"country":"US","name":"North Yelm","_id":5805317,"coord":{"lon":-122.602898,"lat":46.96315}},
{"country":"US","name":"Ocean Park","_id":5805503,"coord":{"lon":-124.050163,"lat":46.491489}},
{"country":"US","name":"Ocean Shores","_id":5805505,"coord":{"lon":-124.156288,"lat":46.973701}},
{"country":"US","name":"Okanogan","_id":5805550,"coord":{"lon":-119.583389,"lat":48.361259}},
{"country":"US","name":"Omak","_id":5805734,"coord":{"lon":-119.52755,"lat":48.410992}},
{"country":"US","name":"Oroville","_id":5805838,"coord":{"lon":-119.435623,"lat":48.939049}},
{"country":"US","name":"Orting","_id":5805849,"coord":{"lon":-122.204277,"lat":47.097881}},
{"country":"US","name":"Othello","_id":5805879,"coord":{"lon":-119.175293,"lat":46.82597}},
{"country":"US","name":"Pacific","_id":5806017,"coord":{"lon":-122.250122,"lat":47.264549}},
{"country":"US","name":"Parkwood","_id":5806274,"coord":{"lon":-122.610138,"lat":47.53315}},
{"country":"US","name":"Point Roberts","_id":5807107,"coord":{"lon":-123.077972,"lat":48.985378}},
{"country":"US","name":"Port Ludlow","_id":5807228,"coord":{"lon":-122.683487,"lat":47.925369}},
{"country":"US","name":"Port Orchard","_id":5807236,"coord":{"lon":-122.636253,"lat":47.540371}},
{"country":"US","name":"Port Townsend","_id":5807239,"coord":{"lon":-122.760452,"lat":48.117039}},
{"country":"US","name":"Poulsbo","_id":5807337,"coord":{"lon":-122.646538,"lat":47.735931}},
{"country":"US","name":"Prairie Ridge","_id":5807367,"coord":{"lon":-122.148727,"lat":47.1376}},
{"country":"US","name":"Prosser","_id":5807487,"coord":{"lon":-119.768921,"lat":46.206799}},
{"country":"US","name":"Purdy","_id":5807558,"coord":{"lon":-122.625412,"lat":47.388988}},
{"country":"US","name":"Quincy","_id":5807713,"coord":{"lon":-119.852547,"lat":47.234299}},
{"country":"US","name":"Rainier","_id":5807825,"coord":{"lon":-122.688461,"lat":46.888161}},
{"country":"US","name":"Ravensdale","_id":5807972,"coord":{"lon":-121.983727,"lat":47.352322}},
{"country":"US","name":"Raymond","_id":5807986,"coord":{"lon":-123.732941,"lat":46.686489}},
{"country":"US","name":"Republic","_id":5808201,"coord":{"lon":-118.737808,"lat":48.64822}},
{"country":"US","name":"Ridgefield","_id":5808311,"coord":{"lon":-122.742599,"lat":45.815121}},
{"country":"US","name":"Riverbend","_id":5808402,"coord":{"lon":-121.750389,"lat":47.466492}},
{"country":"US","name":"Riverton","_id":5808432,"coord":{"lon":-122.294571,"lat":47.484268}},
{"country":"US","name":"Ritzville","_id":5808453,"coord":{"lon":-118.379982,"lat":47.127369}},
{"country":"US","name":"Rochester","_id":5808524,"coord":{"lon":-123.096252,"lat":46.82177}},
{"country":"US","name":"Rocky Point","_id":5808691,"coord":{"lon":-122.66848,"lat":47.592869}},
{"country":"US","name":"Rosedale","_id":5808834,"coord":{"lon":-122.652351,"lat":47.33149}},
{"country":"US","name":"Royal City","_id":5808939,"coord":{"lon":-119.630592,"lat":46.90097}},
{"country":"US","name":"Seabeck","_id":5809806,"coord":{"lon":-122.828491,"lat":47.639542}},
{"country":"US","name":"Sedro-Woolley","_id":5809902,"coord":{"lon":-122.236107,"lat":48.503891}},
{"country":"US","name":"Selah","_id":5809928,"coord":{"lon":-120.530067,"lat":46.654018}},
{"country":"US","name":"Sequim","_id":5809983,"coord":{"lon":-123.101837,"lat":48.07954}},
{"country":"US","name":"Shelton","_id":5810176,"coord":{"lon":-123.100708,"lat":47.215092}},
{"country":"US","name":"Sisco Heights","_id":5810559,"coord":{"lon":-122.097076,"lat":48.115379}},
{"country":"US","name":"Smokey Point","_id":5810915,"coord":{"lon":-122.18264,"lat":48.152321}},
{"country":"US","name":"Snohomish","_id":5810988,"coord":{"lon":-122.098183,"lat":47.91288}},
{"country":"US","name":"Snoqualmie","_id":5810995,"coord":{"lon":-121.825394,"lat":47.528709}},
{"country":"US","name":"Soap Lake","_id":5811089,"coord":{"lon":-119.490593,"lat":47.389309}},
{"country":"US","name":"South Bend","_id":5811211,"coord":{"lon":-123.804611,"lat":46.663151}},
{"country":"US","name":"Southworth","_id":5811567,"coord":{"lon":-122.501801,"lat":47.512039}},
{"country":"US","name":"Stanwood","_id":5811995,"coord":{"lon":-122.370712,"lat":48.241211}},
{"country":"US","name":"Steilacoom","_id":5812092,"coord":{"lon":-122.602631,"lat":47.169819}},
{"country":"US","name":"Stevenson","_id":5812177,"coord":{"lon":-121.884521,"lat":45.695671}},
{"country":"US","name":"Sudden Valley","_id":5812434,"coord":{"lon":-122.34655,"lat":48.722889}},
{"country":"US","name":"Sultan","_id":5812483,"coord":{"lon":-121.816513,"lat":47.862598}},
{"country":"US","name":"Sumas","_id":5812494,"coord":{"lon":-122.264877,"lat":49.000118}},
{"country":"US","name":"Summit","_id":5812505,"coord":{"lon":-122.357071,"lat":47.16177}},
{"country":"US","name":"Sumner","_id":5812543,"coord":{"lon":-122.240402,"lat":47.203159}},
{"country":"US","name":"Sunnyslope","_id":5812626,"coord":{"lon":-120.336739,"lat":47.4729}},
{"country":"US","name":"Suquamish","_id":5812723,"coord":{"lon":-122.552361,"lat":47.731209}},
{"country":"US","name":"Tanner","_id":5813063,"coord":{"lon":-121.746223,"lat":47.47538}},
{"country":"US","name":"Tenino","_id":5813207,"coord":{"lon":-122.852913,"lat":46.85677}},
{"country":"US","name":"Terrace Heights","_id":5813249,"coord":{"lon":-120.439789,"lat":46.606239}},
{"country":"US","name":"Three Lakes","_id":5813459,"coord":{"lon":-122.01152,"lat":47.94482}},
{"country":"US","name":"Tieton","_id":5813532,"coord":{"lon":-120.755348,"lat":46.702068}},
{"country":"US","name":"Tonasket","_id":5813726,"coord":{"lon":-119.439499,"lat":48.705151}},
{"country":"US","name":"Toppenish","_id":5813747,"coord":{"lon":-120.30867,"lat":46.37735}},
{"country":"US","name":"Town and Country","_id":5813814,"coord":{"lon":-117.421608,"lat":47.72739}},
{"country":"US","name":"Tracyton","_id":5813832,"coord":{"lon":-122.655144,"lat":47.608978}},
{"country":"US","name":"Trentwood","_id":5813889,"coord":{"lon":-117.210762,"lat":47.69656}},
{"country":"US","name":"Tulalip","_id":5814047,"coord":{"lon":-122.291809,"lat":48.068432}},
{"country":"US","name":"Tulalip Bay","_id":5814048,"coord":{"lon":-122.310143,"lat":48.037319}},
{"country":"US","name":"Union Gap","_id":5814419,"coord":{"lon":-120.47506,"lat":46.55735}},
{"country":"US","name":"Vashon","_id":5814647,"coord":{"lon":-122.459846,"lat":47.447319}},
{"country":"US","name":"Veradale","_id":5814686,"coord":{"lon":-117.207382,"lat":47.649948}},
{"country":"US","name":"Venersborg","_id":5814695,"coord":{"lon":-122.424538,"lat":45.773731}},
{"country":"US","name":"Waitsburg","_id":5814871,"coord":{"lon":-118.15329,"lat":46.27042}},
{"country":"US","name":"Waller","_id":5814941,"coord":{"lon":-122.369293,"lat":47.200661}},
{"country":"US","name":"Walnut Grove","_id":5814950,"coord":{"lon":-122.598991,"lat":45.667889}},
{"country":"US","name":"Wapato","_id":5814992,"coord":{"lon":-120.420341,"lat":46.447632}},
{"country":"US","name":"Warden","_id":5815020,"coord":{"lon":-119.039726,"lat":46.96764}},
{"country":"US","name":"Warm Beach","_id":5815033,"coord":{"lon":-122.364601,"lat":48.17065}},
{"country":"US","name":"Washougal","_id":5815136,"coord":{"lon":-122.353416,"lat":45.582619}},
{"country":"US","name":"Waterville","_id":5815184,"coord":{"lon":-120.071182,"lat":47.647079}},
{"country":"US","name":"Wauna","_id":5815213,"coord":{"lon":-122.642632,"lat":47.37899}},
{"country":"US","name":"West Longview","_id":5815544,"coord":{"lon":-122.999001,"lat":46.167889}},
{"country":"US","name":"West Pasco","_id":5815550,"coord":{"lon":-119.182793,"lat":46.245411}},
{"country":"US","name":"West Richland","_id":5815599,"coord":{"lon":-119.361412,"lat":46.304298}},
{"country":"US","name":"West Valley","_id":5815605,"coord":{"lon":-120.605072,"lat":46.592072}},
{"country":"US","name":"West Wenatchee","_id":5815609,"coord":{"lon":-120.353409,"lat":47.443741}},
{"country":"US","name":"Westport","_id":5815665,"coord":{"lon":-124.104057,"lat":46.890091}},
{"country":"US","name":"White Center","_id":5815759,"coord":{"lon":-122.354851,"lat":47.517319}},
{"country":"US","name":"White Salmon","_id":5815842,"coord":{"lon":-121.486458,"lat":45.727619}},
{"country":"US","name":"Winlock","_id":5816314,"coord":{"lon":-122.937897,"lat":46.491219}},
{"country":"US","name":"Woodinville","_id":5816449,"coord":{"lon":-122.16346,"lat":47.754269}},
{"country":"US","name":"Woodland","_id":5816457,"coord":{"lon":-122.743988,"lat":45.90456}},
{"country":"US","name":"Woods Creek","_id":5816494,"coord":{"lon":-121.89846,"lat":47.878712}},
{"country":"US","name":"Woodway","_id":5816508,"coord":{"lon":-122.382912,"lat":47.796211}},
{"country":"US","name":"Yacolt","_id":5816582,"coord":{"lon":-122.406212,"lat":45.865952}},
{"country":"US","name":"Yarrow Point","_id":5816626,"coord":{"lon":-122.217346,"lat":47.64621}},
{"country":"US","name":"Yelm","_id":5816656,"coord":{"lon":-122.605957,"lat":46.942039}},
{"country":"US","name":"Zillah","_id":5816719,"coord":{"lon":-120.262001,"lat":46.402069}},
{"country":"US","name":"Afton","_id":5816861,"coord":{"lon":-110.93187,"lat":42.72493}},
{"country":"US","name":"Arapahoe","_id":5817340,"coord":{"lon":-108.48983,"lat":42.962181}},
{"country":"US","name":"Bar Nunn","_id":5817809,"coord":{"lon":-106.343361,"lat":42.913582}},
{"country":"US","name":"Basin","_id":5817923,"coord":{"lon":-108.038986,"lat":44.379959}},
{"country":"US","name":"Douglas","_id":5823516,"coord":{"lon":-105.38221,"lat":42.759689}},
{"country":"US","name":"Ethete","_id":5824773,"coord":{"lon":-108.772621,"lat":43.02496}},
{"country":"US","name":"Evansville","_id":5824810,"coord":{"lon":-106.268356,"lat":42.85997}},
{"country":"US","name":"Fort Washakie","_id":5825424,"coord":{"lon":-108.882347,"lat":43.006351}},
{"country":"US","name":"Glenrock","_id":5826088,"coord":{"lon":-105.872231,"lat":42.861359}},
{"country":"US","name":"Green River","_id":5826559,"coord":{"lon":-109.466248,"lat":41.52858}},
{"country":"US","name":"Guernsey","_id":5826723,"coord":{"lon":-104.741631,"lat":42.269691}},
{"country":"US","name":"Hoback","_id":5827703,"coord":{"lon":-110.783813,"lat":43.281872}},
{"country":"US","name":"Jackson","_id":5828648,"coord":{"lon":-110.762428,"lat":43.479931}},
{"country":"US","name":"Kemmerer","_id":5829425,"coord":{"lon":-110.537666,"lat":41.79245}},
{"country":"US","name":"Lovell","_id":5831176,"coord":{"lon":-108.389557,"lat":44.837448}},
{"country":"US","name":"Lusk","_id":5831333,"coord":{"lon":-104.452171,"lat":42.76247}},
{"country":"US","name":"Lyman","_id":5831346,"coord":{"lon":-110.292931,"lat":41.32745}},
{"country":"US","name":"Marbleton","_id":5831530,"coord":{"lon":-110.109322,"lat":42.553551}},
{"country":"US","name":"Mills","_id":5832481,"coord":{"lon":-106.36586,"lat":42.840519}},
{"country":"US","name":"Moorcroft","_id":5832698,"coord":{"lon":-104.950249,"lat":44.263309}},
{"country":"US","name":"Moose Wilson Road","_id":5832759,"coord":{"lon":-110.844658,"lat":43.525211}},
{"country":"US","name":"Mountain View","_id":5832901,"coord":{"lon":-110.339882,"lat":41.268841}},
{"country":"US","name":"Newcastle","_id":5833349,"coord":{"lon":-104.204941,"lat":43.854698}},
{"country":"US","name":"North Rock Springs","_id":5833892,"coord":{"lon":-109.265678,"lat":41.643581}},
{"country":"US","name":"Pine Bluffs","_id":5835069,"coord":{"lon":-104.069122,"lat":41.181931}},
{"country":"US","name":"Pinedale","_id":5835178,"coord":{"lon":-109.860992,"lat":42.866611}},
{"country":"US","name":"Powell","_id":5835606,"coord":{"lon":-108.757347,"lat":44.753841}},
{"country":"US","name":"Rafter J Ranch","_id":5835865,"coord":{"lon":-110.799088,"lat":43.426041}},
{"country":"US","name":"Ranchettes","_id":5835956,"coord":{"lon":-104.790253,"lat":41.21859}},
{"country":"US","name":"Rawlins","_id":5836068,"coord":{"lon":-107.238663,"lat":41.791069}},
{"country":"US","name":"Riverton","_id":5836665,"coord":{"lon":-108.380096,"lat":43.02496}},
{"country":"US","name":"Saratoga","_id":5837593,"coord":{"lon":-106.806427,"lat":41.45496}},
{"country":"US","name":"Sleepy Hollow","_id":5838617,"coord":{"lon":-105.422218,"lat":44.241089}},
{"country":"US","name":"South Greeley","_id":5839233,"coord":{"lon":-104.806358,"lat":41.096931}},
{"country":"US","name":"South Park","_id":5839264,"coord":{"lon":-110.793259,"lat":43.42215}},
{"country":"US","name":"Sundance","_id":5840284,"coord":{"lon":-104.375778,"lat":44.406368}},
{"country":"US","name":"Thermopolis","_id":5840846,"coord":{"lon":-108.212044,"lat":43.646069}},
{"country":"US","name":"Wheatland","_id":5842753,"coord":{"lon":-104.952751,"lat":42.054409}},
{"country":"US","name":"Wilson","_id":5843239,"coord":{"lon":-110.875214,"lat":43.500759}},
{"country":"US","name":"Worland","_id":5843495,"coord":{"lon":-107.955368,"lat":44.016899}},
{"country":"US","name":"Wright","_id":5843515,"coord":{"lon":-105.470551,"lat":43.746922}},
{"country":"US","name":"Fruitdale","_id":5843993,"coord":{"lon":-123.308113,"lat":42.422058}},
{"country":"US","name":"Gold Beach","_id":5843997,"coord":{"lon":-124.421768,"lat":42.40733}},
{"country":"US","name":"Craig","_id":5845544,"coord":{"lon":-133.148331,"lat":55.476391}},
{"country":"US","name":"Haines","_id":5846901,"coord":{"lon":-135.444107,"lat":59.228588}},
{"country":"US","name":"Kahaluu","_id":5847207,"coord":{"lon":-157.83667,"lat":21.463329}},
{"country":"US","name":"Kahuku","_id":5847387,"coord":{"lon":-157.951111,"lat":21.680281}},
{"country":"US","name":"Kailua-Kona","_id":5847504,"coord":{"lon":-155.99556,"lat":19.64056}},
{"country":"US","name":"Kalaheo","_id":5847662,"coord":{"lon":-159.526855,"lat":21.92416}},
{"country":"US","name":"Kalaoa","_id":5847746,"coord":{"lon":-155.981674,"lat":19.728609}},
{"country":"US","name":"Kapaa","_id":5848280,"coord":{"lon":-159.318954,"lat":22.075211}},
{"country":"US","name":"Kapaau","_id":5848308,"coord":{"lon":-155.801941,"lat":20.233891}},
{"country":"US","name":"Kaunakakai","_id":5848652,"coord":{"lon":-157.023895,"lat":21.09333}},
{"country":"US","name":"Keaau","_id":5848891,"coord":{"lon":-155.041672,"lat":19.625561}},
{"country":"US","name":"Kealakekua","_id":5848956,"coord":{"lon":-155.922501,"lat":19.52083}},
{"country":"US","name":"Kekaha","_id":5849164,"coord":{"lon":-159.713181,"lat":21.968309}},
{"country":"US","name":"Keokea","_id":5849207,"coord":{"lon":-156.358337,"lat":20.708611}},
{"country":"US","name":"Kilauea","_id":5849346,"coord":{"lon":-159.407227,"lat":22.209681}},
{"country":"US","name":"Koloa","_id":5849616,"coord":{"lon":-159.464157,"lat":21.902361}},
{"country":"US","name":"Kualapuu","_id":5849718,"coord":{"lon":-157.039719,"lat":21.155279}},
{"country":"US","name":"Kurtistown","_id":5849961,"coord":{"lon":-155.05722,"lat":19.603609}},
{"country":"US","name":"Lahaina","_id":5849996,"coord":{"lon":-156.682495,"lat":20.87833}},
{"country":"US","name":"Laie","_id":5850027,"coord":{"lon":-157.925323,"lat":21.647699}},
{"country":"US","name":"Lanai City","_id":5850059,"coord":{"lon":-156.922226,"lat":20.830561}},
{"country":"US","name":"Lawai","_id":5850181,"coord":{"lon":-159.506165,"lat":21.919991}},
{"country":"US","name":"Leilani Estates","_id":5850212,"coord":{"lon":-154.917786,"lat":19.469721}},
{"country":"US","name":"Leilani Estates","_id":5850213,"coord":{"lon":-154.917221,"lat":19.467501}},
{"country":"US","name":"Lihue","_id":5850248,"coord":{"lon":-159.367188,"lat":21.978861}},
{"country":"US","name":"Maili","_id":5850492,"coord":{"lon":-158.180283,"lat":21.42194}},
{"country":"US","name":"Makaha","_id":5850511,"coord":{"lon":-158.217499,"lat":21.46944}},
{"country":"US","name":"Makaha Valley","_id":5850522,"coord":{"lon":-158.203888,"lat":21.48222}},
{"country":"US","name":"Makawao","_id":5850616,"coord":{"lon":-156.313065,"lat":20.856939}},
{"country":"US","name":"Maunawili","_id":5850966,"coord":{"lon":-157.770554,"lat":21.37278}},
{"country":"US","name":"Mokuleia","_id":5851156,"coord":{"lon":-158.151947,"lat":21.584169}},
{"country":"US","name":"Mountain View","_id":5851253,"coord":{"lon":-155.108063,"lat":19.55583}},
{"country":"US","name":"Nanakuli","_id":5851349,"coord":{"lon":-158.154724,"lat":21.39056}},
{"country":"US","name":"Nanawale Estates","_id":5851364,"coord":{"lon":-154.911942,"lat":19.506109}},
{"country":"US","name":"Nanawale Estates","_id":5851365,"coord":{"lon":-154.91333,"lat":19.506941}},
{"country":"US","name":"Omao","_id":5851719,"coord":{"lon":-159.482773,"lat":21.92972}},
{"country":"US","name":"Orchidlands Estates","_id":5851821,"coord":{"lon":-155.016937,"lat":19.56333}},
{"country":"US","name":"Pahala","_id":5851902,"coord":{"lon":-155.479996,"lat":19.20528}},
{"country":"US","name":"Paia","_id":5851942,"coord":{"lon":-156.369446,"lat":20.90333}},
{"country":"US","name":"Papaikou","_id":5852140,"coord":{"lon":-155.095825,"lat":19.788891}},
{"country":"US","name":"Pepeekeo","_id":5852322,"coord":{"lon":-155.107224,"lat":19.833611}},
{"country":"US","name":"Princeville","_id":5852602,"coord":{"lon":-159.478882,"lat":22.217581}},
{"country":"US","name":"Puhi","_id":5852676,"coord":{"lon":-159.392395,"lat":21.965389}},
{"country":"US","name":"Pukalani","_id":5852697,"coord":{"lon":-156.33667,"lat":20.83667}},
{"country":"US","name":"Punaluu","_id":5852773,"coord":{"lon":-157.878616,"lat":21.573891}},
{"country":"US","name":"Punaluu","_id":5852774,"coord":{"lon":-157.878616,"lat":21.573891}},
{"country":"US","name":"Pupukea","_id":5852824,"coord":{"lon":-158.052414,"lat":21.663731}},
{"country":"US","name":"Volcano","_id":5853971,"coord":{"lon":-155.237778,"lat":19.43083}},
{"country":"US","name":"Waialua","_id":5854171,"coord":{"lon":-158.13028,"lat":21.57667}},
{"country":"US","name":"Waialua","_id":5854173,"coord":{"lon":-156.761383,"lat":21.100281}},
{"country":"US","name":"Waianae","_id":5854189,"coord":{"lon":-158.185867,"lat":21.443399}},
{"country":"US","name":"Waikapu","_id":5854354,"coord":{"lon":-156.506943,"lat":20.858061}},
{"country":"US","name":"Waikoloa","_id":5854410,"coord":{"lon":-155.790283,"lat":19.94306}},
{"country":"US","name":"Waikoloa Village","_id":5854421,"coord":{"lon":-155.827774,"lat":19.932501}},
{"country":"US","name":"Wailua","_id":5854469,"coord":{"lon":-159.33522,"lat":22.049219}},
{"country":"US","name":"Wailua","_id":5854471,"coord":{"lon":-156.136383,"lat":20.84861}},
{"country":"US","name":"Waimalu","_id":5854530,"coord":{"lon":-157.943329,"lat":21.40472}},
{"country":"US","name":"Waimanalo","_id":5854532,"coord":{"lon":-157.720825,"lat":21.35}},
{"country":"US","name":"Waimanalo Beach","_id":5854535,"coord":{"lon":-157.702774,"lat":21.340281}},
{"country":"US","name":"Waimea","_id":5854564,"coord":{"lon":-159.66893,"lat":21.957069}},
{"country":"US","name":"Waimea","_id":5854571,"coord":{"lon":-155.671677,"lat":20.02306}},
{"country":"US","name":"Wainaku","_id":5854599,"coord":{"lon":-155.095001,"lat":19.74472}},
{"country":"US","name":"Waipio","_id":5854717,"coord":{"lon":-158.000565,"lat":21.418329}},
{"country":"US","name":"Waipio Acres","_id":5854718,"coord":{"lon":-158.016388,"lat":21.467501}},
{"country":"US","name":"Whitmore Village","_id":5854857,"coord":{"lon":-158.023056,"lat":21.513889}}
]